ANDES-A,Order,Family,Genus,Species,Genus_species,Latitude1,Longitude1,State,State_from_coord,Is_correct
3627,Anura,Bufonidae,Rhinella,acuminata,Rhinella acuminata,4.701572,-73.27782,Boyacá,Cundinamarca,False
4975,Anura,Bufonidae,Rhinella,beebei,Rhinella beebei,5.553593,-72.325166,Casanare,Boyacá,False
4643,Anura,Bufonidae,Rhinella,beebei,Rhinella beebei,5.89863,71.13598,Casanare,"[{'address_components': [{'long_name': '6JQHV4XP+F9', 'short_name': '6JQHV4XP+F9', 'types': ['plus_code']}], 'formatted_address': '6JQHV4XP+F9', 'geometry': {'bounds': {'northeast': {'lat': 5.89875, 'lng': 71.136}, 'southwest': {'lat': 5.898625, 'lng': 71.135875}}, 'location': {'lat': 5.89863, 'lng': 71.13598}, 'location_type': 'GEOMETRIC_CENTER', 'viewport': {'northeast': {'lat': 5.900036480291502, 'lng': 71.13728648029151}, 'southwest': {'lat': 5.897338519708498, 'lng': 71.1345885197085}}}, 'place_id': 'GhIJY9F0djKYF0ARPzp15bPIUUA', 'plus_code': {'global_code': '6JQHV4XP+F9'}, 'types': ['plus_code']}]",False
4648,Anura,Bufonidae,Rhinella,beebei,Rhinella beebei,5.89863,71.13598,Casanare,"[{'address_components': [{'long_name': '6JQHV4XP+F9', 'short_name': '6JQHV4XP+F9', 'types': ['plus_code']}], 'formatted_address': '6JQHV4XP+F9', 'geometry': {'bounds': {'northeast': {'lat': 5.89875, 'lng': 71.136}, 'southwest': {'lat': 5.898625, 'lng': 71.135875}}, 'location': {'lat': 5.89863, 'lng': 71.13598}, 'location_type': 'GEOMETRIC_CENTER', 'viewport': {'northeast': {'lat': 5.900036480291502, 'lng': 71.13728648029151}, 'southwest': {'lat': 5.897338519708498, 'lng': 71.1345885197085}}}, 'place_id': 'GhIJY9F0djKYF0ARPzp15bPIUUA', 'plus_code': {'global_code': '6JQHV4XP+F9'}, 'types': ['plus_code']}]",False
4654,Anura,Bufonidae,Rhinella,beebei,Rhinella beebei,5.89863,71.13598,Casanare,"[{'address_components': [{'long_name': '6JQHV4XP+F9', 'short_name': '6JQHV4XP+F9', 'types': ['plus_code']}], 'formatted_address': '6JQHV4XP+F9', 'geometry': {'bounds': {'northeast': {'lat': 5.89875, 'lng': 71.136}, 'southwest': {'lat': 5.898625, 'lng': 71.135875}}, 'location': {'lat': 5.89863, 'lng': 71.13598}, 'location_type': 'GEOMETRIC_CENTER', 'viewport': {'northeast': {'lat': 5.900036480291502, 'lng': 71.13728648029151}, 'southwest': {'lat': 5.897338519708498, 'lng': 71.1345885197085}}}, 'place_id': 'GhIJY9F0djKYF0ARPzp15bPIUUA', 'plus_code': {'global_code': '6JQHV4XP+F9'}, 'types': ['plus_code']}]",False
3521,Anura,Bufonidae,Rhinella,horribilis,Rhinella horribilis,4.73978,-73.86868,Tolima,Cundinamarca,False
1390,Anura,Bufonidae,Rhinella,humboldti,Rhinella humboldti,6.98,-7.93,,"[{'address_components': [{'long_name': 'X3J9+2X', 'short_name': 'X3J9+2X', 'types': ['plus_code']}, {'long_name': 'Babli', 'short_name': 'Babli', 'types': ['locality', 'political']}, {'long_name': 'Guémon', 'short_name': 'Guémon', 'types': ['administrative_area_level_2', 'political']}, {'long_name': 'District des Montagnes', 'short_name': 'District des Montagnes', 'types': ['administrative_area_level_1', 'political']}, {'long_name': 'Costa de Marfil', 'short_name': 'CI', 'types': ['country', 'political']}], 'formatted_address': 'X3J9+2X Babli, Costa de Marfil', 'geometry': {'bounds': {'northeast': {'lat': 6.980124999999999, 'lng': -7.93}, 'southwest': {'lat': 6.98, 'lng': -7.930124999999999}}, 'location': {'lat': 6.98, 'lng': -7.93}, 'location_type': 'GEOMETRIC_CENTER', 'viewport': {'northeast': {'lat': 6.981411480291502, 'lng': -7.928713519708497}, 'southwest': {'lat': 6.978713519708498, 'lng': -7.931411480291501}}}, 'place_id': 'GhIJ61G4HoXrG0ARuB6F61G4H8A', 'plus_code': {'compound_code': 'X3J9+2X Babli, Costa de Marfil', 'global_code': '6CRJX3J9+2X'}, 'types': ['plus_code']}, {'address_components': [{'long_name': 'Man', 'short_name': 'Man', 'types': ['administrative_area_level_3', 'political']}, {'long_name': 'Montagnes District', 'short_name': 'Montagnes District', 'types': ['administrative_area_level_1', 'political']}, {'long_name': 'Costa de Marfil', 'short_name': 'CI', 'types': ['country', 'political']}], 'formatted_address': 'Man, Costa de Marfil', 'geometry': {'bounds': {'northeast': {'lat': 7.706908899999999, 'lng': -6.970825199999999}, 'southwest': {'lat': 6.8487142, 'lng': -7.998046899999999}}, 'location': {'lat': 7.2890304, 'lng': -7.524724300000001}, 'location_type': 'APPROXIMATE', 'viewport': {'northeast': {'lat': 7.706908899999999, 'lng': -6.970825199999999}, 'southwest': {'lat': 6.8487142, 'lng': -7.998046899999999}}}, 'place_id': 'ChIJncZxPjULsA8RLRJwAVlDOMw', 'types': ['administrative_area_level_3', 'political']}, {'address_components': [{'long_name': 'Guémon', 'short_name': 'Guémon', 'types': ['administrative_area_level_2', 'political']}, {'long_name': 'Montagnes District', 'short_name': 'Montagnes District', 'types': ['administrative_area_level_1', 'political']}, {'long_name': 'Costa de Marfil', 'short_name': 'CI', 'types': ['country', 'political']}], 'formatted_address': 'Guémon, Costa de Marfil', 'geometry': {'bounds': {'northeast': {'lat': 7.7257545, 'lng': -6.9730728}, 'southwest': {'lat': 6.3316877, 'lng': -7.993115499999999}}, 'location': {'lat': 6.8658797, 'lng': -7.265285799999999}, 'location_type': 'APPROXIMATE', 'viewport': {'northeast': {'lat': 7.7257545, 'lng': -6.9730728}, 'southwest': {'lat': 6.3316877, 'lng': -7.993115499999999}}}, 'place_id': 'ChIJhWqmCekQuw8RO8EzIsHBuDI', 'types': ['administrative_area_level_2', 'political']}, {'address_components': [{'long_name': '18 montañas', 'short_name': '18 montañas', 'types': ['administrative_area_level_1', 'political']}, {'long_name': 'Costa de Marfil', 'short_name': 'CI', 'types': ['country', 'political']}], 'formatted_address': '18 montañas, Costa de Marfil', 'geometry': {'bounds': {'northeast': {'lat': 8.154556699999999, 'lng': -6.9730728}, 'southwest': {'lat': 5.6179353, 'lng': -8.6020589}}, 'location': {'lat': 7.376237300000001, 'lng': -7.4381355}, 'location_type': 'APPROXIMATE', 'viewport': {'northeast': {'lat': 8.154556699999999, 'lng': -6.9730728}, 'southwest': {'lat': 5.6179353, 'lng': -8.6020589}}}, 'place_id': 'ChIJR6bqhQj4rw8RKKLmMg4QI68', 'types': ['administrative_area_level_1', 'political']}, {'address_components': [{'long_name': 'Costa de Marfil', 'short_name': 'CI', 'types': ['country', 'political']}], 'formatted_address': 'Costa de Marfil', 'geometry': {'bounds': {'northeast': {'lat': 10.7400149, 'lng': -2.493031}, 'southwest': {'lat': 4.193, 'lng': -8.6020589}}, 'location': {'lat': 7.539988999999999, 'lng': -5.547079999999999}, 'location_type': 'APPROXIMATE', 'viewport': {'northeast': {'lat': 10.7400149, 'lng': -2.493031}, 'southwest': {'lat': 4.193, 'lng': -8.6020589}}}, 'place_id': 'ChIJZ6BJsIcTlg8RQO65fGIe-QE', 'types': ['country', 'political']}]",False
3226,Anura,Bufonidae,Rhinella,humboldti,Rhinella humboldti,6.7344,-74.21429,Santander,Antioquia,False
4604,Anura,Bufonidae,Rhinella,humboldti,Rhinella humboldti,4.60064,-74.06604,Tolima,Cundinamarca,False
4608,Anura,Bufonidae,Rhinella,humboldti,Rhinella humboldti,4.60064,-74.06604,Tolima,Cundinamarca,False
4610,Anura,Bufonidae,Rhinella,humboldti,Rhinella humboldti,4.60064,-74.06604,Tolima,Cundinamarca,False
3548,Anura,Bufonidae,Rhinella,humboldti,Rhinella humboldti,4.73978,-73.86868,Tolima,Cundinamarca,False
3549,Anura,Bufonidae,Rhinella,humboldti,Rhinella humboldti,4.73978,-73.86868,Tolima,Cundinamarca,False
3550,Anura,Bufonidae,Rhinella,humboldti,Rhinella humboldti,4.73978,-73.86868,Tolima,Cundinamarca,False
3590,Anura,Bufonidae,Rhinella,humboldti,Rhinella humboldti,4.73978,-73.86868,Tolima,Cundinamarca,False
4972,Anura,Bufonidae,Rhinella,margaritifera,Rhinella margaritifera,5.572452,-72.317428,Casanare,Boyacá,False
2573,Anura,Bufonidae,Rhinella,margaritifera,Rhinella margaritifera,2.05,-67.06253,Guainía,Amazonas,False
2574,Anura,Bufonidae,Rhinella,margaritifera,Rhinella margaritifera,2.05,-67.06253,Guainía,Amazonas,False
2575,Anura,Bufonidae,Rhinella,margaritifera,Rhinella margaritifera,2.05,-67.06253,Guainía,Amazonas,False
4439,Anura,Bufonidae,Rhinella,margaritifera,Rhinella margaritifera,5.00654,-74.090914,Tolima,Cundinamarca,False
4662,Anura,Bufonidae,Rhinella,marina,Rhinella marina,4.33242,-75.42515,Cundinamarca,Tolima,False
3519,Anura,Bufonidae,Rhinella,marina,Rhinella marina,4.73978,-73.86868,Tolima,Cundinamarca,False
3520,Anura,Bufonidae,Rhinella,marina,Rhinella marina,4.73978,-73.86868,Tolima,Cundinamarca,False
3529,Anura,Bufonidae,Rhinella,marina,Rhinella marina,4.73978,-73.86868,Tolima,Cundinamarca,False
3589,Anura,Bufonidae,Rhinella,marina,Rhinella marina,4.73978,-73.86868,Tolima,Cundinamarca,False
3530,Anura,Bufonidae,Rhinella,marina,Rhinella marina,4.73978,-73.86868,Tolima,Cundinamarca,False
634,Anura,Centrolenidae,Espadarana,prosoblepon,Espadarana prosoblepon,4.9211111,75.0716667,Tolima,"[{'address_components': [{'long_name': '6JPQW3CC+CM', 'short_name': '6JPQW3CC+CM', 'types': ['plus_code']}], 'formatted_address': '6JPQW3CC+CM', 'geometry': {'bounds': {'northeast': {'lat': 4.921125, 'lng': 75.07175}, 'southwest': {'lat': 4.920999999999999, 'lng': 75.071625}}, 'location': {'lat': 4.9211111, 'lng': 75.0716667}, 'location_type': 'GEOMETRIC_CENTER', 'viewport': {'northeast': {'lat': 4.922411480291502, 'lng': 75.0730364802915}, 'southwest': {'lat': 4.919713519708497, 'lng': 75.0703385197085}}}, 'place_id': 'GhIJK-6JvzevE0ARlS3tL5bEUkA', 'plus_code': {'global_code': '6JPQW3CC+CM'}, 'types': ['plus_code']}]",False
1402,Anura,Centrolenidae,Hyalinobatrachium,fleischmanni,Hyalinobatrachium fleischmanni,5.306787,-74.9058,Tolima,Caldas,False
1403,Anura,Centrolenidae,Hyalinobatrachium,fleischmanni,Hyalinobatrachium fleischmanni,5.306787,-74.9058,Tolima,Caldas,False
633,Anura,Centrolenidae,Rulyrana,susatami,Rulyrana susatami,4.9211111,75.0716667,Tolima,"[{'address_components': [{'long_name': '6JPQW3CC+CM', 'short_name': '6JPQW3CC+CM', 'types': ['plus_code']}], 'formatted_address': '6JPQW3CC+CM', 'geometry': {'bounds': {'northeast': {'lat': 4.921125, 'lng': 75.07175}, 'southwest': {'lat': 4.920999999999999, 'lng': 75.071625}}, 'location': {'lat': 4.9211111, 'lng': 75.0716667}, 'location_type': 'GEOMETRIC_CENTER', 'viewport': {'northeast': {'lat': 4.922411480291502, 'lng': 75.0730364802915}, 'southwest': {'lat': 4.919713519708497, 'lng': 75.0703385197085}}}, 'place_id': 'GhIJK-6JvzevE0ARlS3tL5bEUkA', 'plus_code': {'global_code': '6JPQW3CC+CM'}, 'types': ['plus_code']}]",False
4954,Anura,Craugastoridae,Craugastor,fitzingeri,Craugastor fitzingeri,5.306787,-74.9058,Tolima,Caldas,False
2397,Anura,Craugastoridae,Craugastor,longirostris,Craugastor longirostris,3.8391667,-77.1966667,Valle del Cauca,Cauca,False
2398,Anura,Craugastoridae,Craugastor,longirostris,Craugastor longirostris,3.8391667,-77.1966667,Valle del Cauca,Cauca,False
805,Anura,Craugastoridae,Oreobates,quixensis,Oreobates quixensis,-0.678331,-9.960903,Amazonas,"[{'address_components': [{'long_name': '6CFG82CQ+MJ', 'short_name': '6CFG82CQ+MJ', 'types': ['plus_code']}], 'formatted_address': '6CFG82CQ+MJ', 'geometry': {'bounds': {'northeast': {'lat': -0.67825, 'lng': -9.960875}, 'southwest': {'lat': -0.6783750000000001, 'lng': -9.961000000000002}}, 'location': {'lat': -0.678331, 'lng': -9.960903000000002}, 'location_type': 'GEOMETRIC_CENTER', 'viewport': {'northeast': {'lat': -0.676963519708498, 'lng': -9.9595885197085}, 'southwest': {'lat': -0.6796614802915021, 'lng': -9.962286480291505}}}, 'place_id': 'GhIJgJ2bNuO05b8RsEFfevvrI8A', 'plus_code': {'global_code': '6CFG82CQ+MJ'}, 'types': ['plus_code']}]",False
4501,Anura,Craugastoridae,Oreobates,quixensis,Oreobates quixensis,-3.849164,-70.220109,Leticia,Amazonas,False
1594,Anura,Craugastoridae,Pristimantis,bogotensis,Pristimantis bogotensis,4.5329999,-76.7730026,Cundinamarca,Chocó,False
1595,Anura,Craugastoridae,Pristimantis,bogotensis,Pristimantis bogotensis,4.5329999,-76.7730026,Cundinamarca,Chocó,False
1717,Anura,Craugastoridae,Pristimantis,bogotensis,Pristimantis bogotensis,4.5329999,-76.773003,Cundinamarca,Chocó,False
1596,Anura,Craugastoridae,Pristimantis,bogotensis,Pristimantis bogotensis,4.5329999,-76.7730026,Cundinamarca,Chocó,False
1597,Anura,Craugastoridae,Pristimantis,bogotensis,Pristimantis bogotensis,4.5329999,-76.7730026,Cundinamarca,Chocó,False
4185,Anura,Craugastoridae,Pristimantis,bogotensis,Pristimantis bogotensis,4.52462,-73.77386,Meta,Cundinamarca,False
4179,Anura,Craugastoridae,Pristimantis,bogotensis,Pristimantis bogotensis,4.52486,-73.77386,Meta,Cundinamarca,False
4184,Anura,Craugastoridae,Pristimantis,bogotensis,Pristimantis bogotensis,4.52486,-73.77386,Meta,Cundinamarca,False
4174,Anura,Craugastoridae,Pristimantis,bogotensis,Pristimantis bogotensis,4.52553,-73.7734,Meta,Cundinamarca,False
4218,Anura,Craugastoridae,Pristimantis,elegans,Pristimantis elegans,4.52486,-73.77386,Meta,Cundinamarca,False
4799,Anura,Craugastoridae,Pristimantis,eritopleura,Pristimantis eritopleura,6.06432,-75.214,Antioquia,Cundinamarca,False
4796,Anura,Craugastoridae,Pristimantis,eritopleura,Pristimantis eritopleura,6.06435,-75.21402,Antioquia,Cundinamarca,False
4800,Anura,Craugastoridae,Pristimantis,eritopleura,Pristimantis eritopleura,6.06525,-75.21748,Antioquia,Cundinamarca,False
4797,Anura,Craugastoridae,Pristimantis,eritopleura,Pristimantis eritopleura,6.06556,-75.21764,Antioquia,Cundinamarca,False
4798,Anura,Craugastoridae,Pristimantis,eritopleura,Pristimantis eritopleura,6.06556,-75.21764,Antioquia,Cundinamarca,False
4980,Anura,Craugastoridae,Pristimantis,medemi,Pristimantis medemi,5.552384,-72.322674,Casanare,Boyacá,False
1602,Anura,Craugastoridae,Pristimantis,nervicus,Pristimantis nervicus,4.5329999,-76.7730026,Cundinamarca,Chocó,False
1603,Anura,Craugastoridae,Pristimantis,nervicus,Pristimantis nervicus,4.5329999,-76.7730026,Cundinamarca,Chocó,False
1604,Anura,Craugastoridae,Pristimantis,nervicus,Pristimantis nervicus,4.5329999,-76.7730026,Cundinamarca,Chocó,False
1605,Anura,Craugastoridae,Pristimantis,nervicus,Pristimantis nervicus,4.5329999,-76.7730026,Cundinamarca,Chocó,False
1606,Anura,Craugastoridae,Pristimantis,nervicus,Pristimantis nervicus,4.5329999,-76.7730026,Cundinamarca,Chocó,False
4808,Anura,Craugastoridae,Pristimantis,permixtus,Pristimantis permixtus,6.06396,-75.21415,Antioquia,Cundinamarca,False
4720,Anura,Craugastoridae,Pristimantis,taeniatus,Pristimantis taeniatus,6.05541,-75.20864,Antioquia,Cundinamarca,False
4721,Anura,Craugastoridae,Pristimantis,taeniatus,Pristimantis taeniatus,6.05545,-75.20866,Antioquia,Cundinamarca,False
4806,Anura,Craugastoridae,Pristimantis,taeniatus,Pristimantis taeniatus,6.06555,-75.21311,Antioquia,Cundinamarca,False
4807,Anura,Craugastoridae,Pristimantis,taeniatus,Pristimantis taeniatus,6.06558,-75.21147,Antioquia,Cundinamarca,False
1095,Anura,Dendrobatidae,Andinobates,cassidyhornae,Andinobates cassidyhornae,5.5166667,-75.8833333,,Antioquia,False
1088,Anura,Dendrobatidae,Andinobates,cassidyhornae,Andinobates cassidyhornae,5.51725,75.8906,Antioquia,"[{'address_components': [{'long_name': '6JQQGV8R+W6', 'short_name': '6JQQGV8R+W6', 'types': ['plus_code']}], 'formatted_address': '6JQQGV8R+W6', 'geometry': {'bounds': {'northeast': {'lat': 5.517374999999999, 'lng': 75.890625}, 'southwest': {'lat': 5.51725, 'lng': 75.8905}}, 'location': {'lat': 5.51725, 'lng': 75.89059999999999}, 'location_type': 'GEOMETRIC_CENTER', 'viewport': {'northeast': {'lat': 5.518661480291502, 'lng': 75.89191148029151}, 'southwest': {'lat': 5.515963519708498, 'lng': 75.8892135197085}}}, 'place_id': 'GhIJi2zn-6kRFkARU3Qkl__4UkA', 'plus_code': {'global_code': '6JQQGV8R+W6'}, 'types': ['plus_code']}]",False
1089,Anura,Dendrobatidae,Andinobates,cassidyhornae,Andinobates cassidyhornae,5.51725,75.8906,Antioquia,"[{'address_components': [{'long_name': '6JQQGV8R+W6', 'short_name': '6JQQGV8R+W6', 'types': ['plus_code']}], 'formatted_address': '6JQQGV8R+W6', 'geometry': {'bounds': {'northeast': {'lat': 5.517374999999999, 'lng': 75.890625}, 'southwest': {'lat': 5.51725, 'lng': 75.8905}}, 'location': {'lat': 5.51725, 'lng': 75.89059999999999}, 'location_type': 'GEOMETRIC_CENTER', 'viewport': {'northeast': {'lat': 5.518661480291502, 'lng': 75.89191148029151}, 'southwest': {'lat': 5.515963519708498, 'lng': 75.8892135197085}}}, 'place_id': 'GhIJi2zn-6kRFkARU3Qkl__4UkA', 'plus_code': {'global_code': '6JQQGV8R+W6'}, 'types': ['plus_code']}]",False
1090,Anura,Dendrobatidae,Andinobates,cassidyhornae,Andinobates cassidyhornae,5.51725,75.8906,Antioquia,"[{'address_components': [{'long_name': '6JQQGV8R+W6', 'short_name': '6JQQGV8R+W6', 'types': ['plus_code']}], 'formatted_address': '6JQQGV8R+W6', 'geometry': {'bounds': {'northeast': {'lat': 5.517374999999999, 'lng': 75.890625}, 'southwest': {'lat': 5.51725, 'lng': 75.8905}}, 'location': {'lat': 5.51725, 'lng': 75.89059999999999}, 'location_type': 'GEOMETRIC_CENTER', 'viewport': {'northeast': {'lat': 5.518661480291502, 'lng': 75.89191148029151}, 'southwest': {'lat': 5.515963519708498, 'lng': 75.8892135197085}}}, 'place_id': 'GhIJi2zn-6kRFkARU3Qkl__4UkA', 'plus_code': {'global_code': '6JQQGV8R+W6'}, 'types': ['plus_code']}]",False
1091,Anura,Dendrobatidae,Andinobates,cassidyhornae,Andinobates cassidyhornae,5.51725,75.8906,Antioquia,"[{'address_components': [{'long_name': '6JQQGV8R+W6', 'short_name': '6JQQGV8R+W6', 'types': ['plus_code']}], 'formatted_address': '6JQQGV8R+W6', 'geometry': {'bounds': {'northeast': {'lat': 5.517374999999999, 'lng': 75.890625}, 'southwest': {'lat': 5.51725, 'lng': 75.8905}}, 'location': {'lat': 5.51725, 'lng': 75.89059999999999}, 'location_type': 'GEOMETRIC_CENTER', 'viewport': {'northeast': {'lat': 5.518661480291502, 'lng': 75.89191148029151}, 'southwest': {'lat': 5.515963519708498, 'lng': 75.8892135197085}}}, 'place_id': 'GhIJi2zn-6kRFkARU3Qkl__4UkA', 'plus_code': {'global_code': '6JQQGV8R+W6'}, 'types': ['plus_code']}]",False
1092,Anura,Dendrobatidae,Andinobates,cassidyhornae,Andinobates cassidyhornae,5.51725,75.8906,Antioquia,"[{'address_components': [{'long_name': '6JQQGV8R+W6', 'short_name': '6JQQGV8R+W6', 'types': ['plus_code']}], 'formatted_address': '6JQQGV8R+W6', 'geometry': {'bounds': {'northeast': {'lat': 5.517374999999999, 'lng': 75.890625}, 'southwest': {'lat': 5.51725, 'lng': 75.8905}}, 'location': {'lat': 5.51725, 'lng': 75.89059999999999}, 'location_type': 'GEOMETRIC_CENTER', 'viewport': {'northeast': {'lat': 5.518661480291502, 'lng': 75.89191148029151}, 'southwest': {'lat': 5.515963519708498, 'lng': 75.8892135197085}}}, 'place_id': 'GhIJi2zn-6kRFkARU3Qkl__4UkA', 'plus_code': {'global_code': '6JQQGV8R+W6'}, 'types': ['plus_code']}]",False
1093,Anura,Dendrobatidae,Andinobates,cassidyhornae,Andinobates cassidyhornae,5.51725,75.8906,Antioquia,"[{'address_components': [{'long_name': '6JQQGV8R+W6', 'short_name': '6JQQGV8R+W6', 'types': ['plus_code']}], 'formatted_address': '6JQQGV8R+W6', 'geometry': {'bounds': {'northeast': {'lat': 5.517374999999999, 'lng': 75.890625}, 'southwest': {'lat': 5.51725, 'lng': 75.8905}}, 'location': {'lat': 5.51725, 'lng': 75.89059999999999}, 'location_type': 'GEOMETRIC_CENTER', 'viewport': {'northeast': {'lat': 5.518661480291502, 'lng': 75.89191148029151}, 'southwest': {'lat': 5.515963519708498, 'lng': 75.8892135197085}}}, 'place_id': 'GhIJi2zn-6kRFkARU3Qkl__4UkA', 'plus_code': {'global_code': '6JQQGV8R+W6'}, 'types': ['plus_code']}]",False
1094,Anura,Dendrobatidae,Andinobates,cassidyhornae,Andinobates cassidyhornae,5.51725,75.8906,Antioquia,"[{'address_components': [{'long_name': '6JQQGV8R+W6', 'short_name': '6JQQGV8R+W6', 'types': ['plus_code']}], 'formatted_address': '6JQQGV8R+W6', 'geometry': {'bounds': {'northeast': {'lat': 5.517374999999999, 'lng': 75.890625}, 'southwest': {'lat': 5.51725, 'lng': 75.8905}}, 'location': {'lat': 5.51725, 'lng': 75.89059999999999}, 'location_type': 'GEOMETRIC_CENTER', 'viewport': {'northeast': {'lat': 5.518661480291502, 'lng': 75.89191148029151}, 'southwest': {'lat': 5.515963519708498, 'lng': 75.8892135197085}}}, 'place_id': 'GhIJi2zn-6kRFkARU3Qkl__4UkA', 'plus_code': {'global_code': '6JQQGV8R+W6'}, 'types': ['plus_code']}]",False
4805,Anura,Dendrobatidae,Colostethus,fraterdanieli,Colostethus fraterdanieli,6.06435,-75.21402,Antioquia,Cundinamarca,False
3713,Anura,Dendrobatidae,Epipedobates,boulengeri,Epipedobates boulengeri,3.611528,76.885194,Valle del Cauca,"[{'address_components': [{'long_name': '6JMRJV6P+J3', 'short_name': '6JMRJV6P+J3', 'types': ['plus_code']}], 'formatted_address': '6JMRJV6P+J3', 'geometry': {'bounds': {'northeast': {'lat': 3.611625, 'lng': 76.88525}, 'southwest': {'lat': 3.6115, 'lng': 76.885125}}, 'location': {'lat': 3.611528, 'lng': 76.885194}, 'location_type': 'GEOMETRIC_CENTER', 'viewport': {'northeast': {'lat': 3.612911480291502, 'lng': 76.8865364802915}, 'southwest': {'lat': 3.610213519708497, 'lng': 76.88383851970849}}}, 'place_id': 'GhIJ0LTEymjkDEARYye8BKc4U0A', 'plus_code': {'global_code': '6JMRJV6P+J3'}, 'types': ['plus_code']}]",False
3714,Anura,Dendrobatidae,Epipedobates,boulengeri,Epipedobates boulengeri,3.611528,76.885194,Valle del Cauca,"[{'address_components': [{'long_name': '6JMRJV6P+J3', 'short_name': '6JMRJV6P+J3', 'types': ['plus_code']}], 'formatted_address': '6JMRJV6P+J3', 'geometry': {'bounds': {'northeast': {'lat': 3.611625, 'lng': 76.88525}, 'southwest': {'lat': 3.6115, 'lng': 76.885125}}, 'location': {'lat': 3.611528, 'lng': 76.885194}, 'location_type': 'GEOMETRIC_CENTER', 'viewport': {'northeast': {'lat': 3.612911480291502, 'lng': 76.8865364802915}, 'southwest': {'lat': 3.610213519708497, 'lng': 76.88383851970849}}}, 'place_id': 'GhIJ0LTEymjkDEARYye8BKc4U0A', 'plus_code': {'global_code': '6JMRJV6P+J3'}, 'types': ['plus_code']}]",False
3718,Anura,Dendrobatidae,Epipedobates,boulengeri,Epipedobates boulengeri,3.611528,76.885194,Valle del Cauca,"[{'address_components': [{'long_name': '6JMRJV6P+J3', 'short_name': '6JMRJV6P+J3', 'types': ['plus_code']}], 'formatted_address': '6JMRJV6P+J3', 'geometry': {'bounds': {'northeast': {'lat': 3.611625, 'lng': 76.88525}, 'southwest': {'lat': 3.6115, 'lng': 76.885125}}, 'location': {'lat': 3.611528, 'lng': 76.885194}, 'location_type': 'GEOMETRIC_CENTER', 'viewport': {'northeast': {'lat': 3.612911480291502, 'lng': 76.8865364802915}, 'southwest': {'lat': 3.610213519708497, 'lng': 76.88383851970849}}}, 'place_id': 'GhIJ0LTEymjkDEARYye8BKc4U0A', 'plus_code': {'global_code': '6JMRJV6P+J3'}, 'types': ['plus_code']}]",False
3719,Anura,Dendrobatidae,Epipedobates,boulengeri,Epipedobates boulengeri,3.611528,76.885194,Valle del Cauca,"[{'address_components': [{'long_name': '6JMRJV6P+J3', 'short_name': '6JMRJV6P+J3', 'types': ['plus_code']}], 'formatted_address': '6JMRJV6P+J3', 'geometry': {'bounds': {'northeast': {'lat': 3.611625, 'lng': 76.88525}, 'southwest': {'lat': 3.6115, 'lng': 76.885125}}, 'location': {'lat': 3.611528, 'lng': 76.885194}, 'location_type': 'GEOMETRIC_CENTER', 'viewport': {'northeast': {'lat': 3.612911480291502, 'lng': 76.8865364802915}, 'southwest': {'lat': 3.610213519708497, 'lng': 76.88383851970849}}}, 'place_id': 'GhIJ0LTEymjkDEARYye8BKc4U0A', 'plus_code': {'global_code': '6JMRJV6P+J3'}, 'types': ['plus_code']}]",False
3720,Anura,Dendrobatidae,Epipedobates,boulengeri,Epipedobates boulengeri,3.611528,76.885194,Valle del Cauca,"[{'address_components': [{'long_name': '6JMRJV6P+J3', 'short_name': '6JMRJV6P+J3', 'types': ['plus_code']}], 'formatted_address': '6JMRJV6P+J3', 'geometry': {'bounds': {'northeast': {'lat': 3.611625, 'lng': 76.88525}, 'southwest': {'lat': 3.6115, 'lng': 76.885125}}, 'location': {'lat': 3.611528, 'lng': 76.885194}, 'location_type': 'GEOMETRIC_CENTER', 'viewport': {'northeast': {'lat': 3.612911480291502, 'lng': 76.8865364802915}, 'southwest': {'lat': 3.610213519708497, 'lng': 76.88383851970849}}}, 'place_id': 'GhIJ0LTEymjkDEARYye8BKc4U0A', 'plus_code': {'global_code': '6JMRJV6P+J3'}, 'types': ['plus_code']}]",False
3715,Anura,Dendrobatidae,Epipedobates,boulengeri,Epipedobates boulengeri,3.61175,76.885444,Valle del Cauca,"[{'address_components': [{'long_name': '6JMRJV6P+P5', 'short_name': '6JMRJV6P+P5', 'types': ['plus_code']}], 'formatted_address': '6JMRJV6P+P5', 'geometry': {'bounds': {'northeast': {'lat': 3.611875, 'lng': 76.8855}, 'southwest': {'lat': 3.61175, 'lng': 76.885375}}, 'location': {'lat': 3.61175, 'lng': 76.88544399999999}, 'location_type': 'GEOMETRIC_CENTER', 'viewport': {'northeast': {'lat': 3.613161480291503, 'lng': 76.88678648029149}, 'southwest': {'lat': 3.610463519708498, 'lng': 76.88408851970848}}}, 'place_id': 'GhIJvp8aL93kDEARH5xPHas4U0A', 'plus_code': {'global_code': '6JMRJV6P+P5'}, 'types': ['plus_code']}]",False
3716,Anura,Dendrobatidae,Epipedobates,boulengeri,Epipedobates boulengeri,3.61175,76.885444,Valle del Cauca,"[{'address_components': [{'long_name': '6JMRJV6P+P5', 'short_name': '6JMRJV6P+P5', 'types': ['plus_code']}], 'formatted_address': '6JMRJV6P+P5', 'geometry': {'bounds': {'northeast': {'lat': 3.611875, 'lng': 76.8855}, 'southwest': {'lat': 3.61175, 'lng': 76.885375}}, 'location': {'lat': 3.61175, 'lng': 76.88544399999999}, 'location_type': 'GEOMETRIC_CENTER', 'viewport': {'northeast': {'lat': 3.613161480291503, 'lng': 76.88678648029149}, 'southwest': {'lat': 3.610463519708498, 'lng': 76.88408851970848}}}, 'place_id': 'GhIJvp8aL93kDEARH5xPHas4U0A', 'plus_code': {'global_code': '6JMRJV6P+P5'}, 'types': ['plus_code']}]",False
3717,Anura,Dendrobatidae,Epipedobates,boulengeri,Epipedobates boulengeri,3.61175,76.885444,Valle del Cauca,"[{'address_components': [{'long_name': '6JMRJV6P+P5', 'short_name': '6JMRJV6P+P5', 'types': ['plus_code']}], 'formatted_address': '6JMRJV6P+P5', 'geometry': {'bounds': {'northeast': {'lat': 3.611875, 'lng': 76.8855}, 'southwest': {'lat': 3.61175, 'lng': 76.885375}}, 'location': {'lat': 3.61175, 'lng': 76.88544399999999}, 'location_type': 'GEOMETRIC_CENTER', 'viewport': {'northeast': {'lat': 3.613161480291503, 'lng': 76.88678648029149}, 'southwest': {'lat': 3.610463519708498, 'lng': 76.88408851970848}}}, 'place_id': 'GhIJvp8aL93kDEARH5xPHas4U0A', 'plus_code': {'global_code': '6JMRJV6P+P5'}, 'types': ['plus_code']}]",False
3691,Anura,Dendrobatidae,Epipedobates,boulengeri,Epipedobates boulengeri,3.84165,-77.198881,Valle del Cauca,Cauca,False
3692,Anura,Dendrobatidae,Epipedobates,boulengeri,Epipedobates boulengeri,3.84165,-77.198881,Valle del Cauca,Cauca,False
3690,Anura,Dendrobatidae,Epipedobates,boulengeri,Epipedobates boulengeri,3.841954,-77.198718,Valle del Cauca,Cauca,False
3693,Anura,Dendrobatidae,Epipedobates,boulengeri,Epipedobates boulengeri,3.842095,-77.199024,Valle del Cauca,Cauca,False
3694,Anura,Dendrobatidae,Epipedobates,boulengeri,Epipedobates boulengeri,3.84226,-77.1987,Valle del Cauca,Cauca,False
2463,Anura,Dendrobatidae,Epipedobates,boulengeri,Epipedobates boulengeri,3.9449,-77.364377,Valle del Cauca,Cauca,False
2464,Anura,Dendrobatidae,Epipedobates,boulengeri,Epipedobates boulengeri,3.9449,-77.364377,Valle del Cauca,Cauca,False
2465,Anura,Dendrobatidae,Epipedobates,boulengeri,Epipedobates boulengeri,3.9449,-77.364377,Valle del Cauca,Cauca,False
2460,Anura,Dendrobatidae,Epipedobates,boulengeri,Epipedobates boulengeri,3.950882,-77.358293,Valle del Cauca,Cauca,False
2461,Anura,Dendrobatidae,Epipedobates,boulengeri,Epipedobates boulengeri,3.950888,-77.358308,Valle del Cauca,Cauca,False
2462,Anura,Dendrobatidae,Epipedobates,boulengeri,Epipedobates boulengeri,3.950888,-77.358308,Valle del Cauca,Cauca,False
2459,Anura,Dendrobatidae,Epipedobates,boulengeri,Epipedobates boulengeri,3.950958,-77.358312,Valle del Cauca,Cauca,False
2458,Anura,Dendrobatidae,Epipedobates,boulengeri,Epipedobates boulengeri,3.951119,-77.358169,Valle del Cauca,Cauca,False
2455,Anura,Dendrobatidae,Epipedobates,boulengeri,Epipedobates boulengeri,3.985064,-77.376723,Valle del Cauca,Cauca,False
2452,Anura,Dendrobatidae,Epipedobates,boulengeri,Epipedobates boulengeri,3.985108,-77.376764,Valle del Cauca,Cauca,False
2453,Anura,Dendrobatidae,Epipedobates,boulengeri,Epipedobates boulengeri,3.985108,-77.376764,Valle del Cauca,Cauca,False
2454,Anura,Dendrobatidae,Epipedobates,boulengeri,Epipedobates boulengeri,3.985108,-77.376764,Valle del Cauca,Cauca,False
2451,Anura,Dendrobatidae,Epipedobates,boulengeri,Epipedobates boulengeri,3.985532,-77.376676,Valle del Cauca,Cauca,False
2457,Anura,Dendrobatidae,Phyllobates,aurotaenia,Phyllobates aurotaenia,3.951089,-77.358173,Valle del Cauca,Cauca,False
2456,Anura,Dendrobatidae,Phyllobates,aurotaenia,Phyllobates aurotaenia,3.985674,-77.376574,Valle del Cauca,Cauca,False
4502,Anura,Hylidae,Boana,alfaroi,Boana alfaroi,-3.849164,-70.220109,Leticia,Amazonas,False
4663,Anura,Hylidae,Boana,crepitans,Boana crepitans,4.33242,-75.42515,Cundinamarca,Tolima,False
4664,Anura,Hylidae,Boana,crepitans,Boana crepitans,4.33242,-75.42515,Cundinamarca,Tolima,False
4978,Anura,Hylidae,Boana,punctata,Boana punctata,5.553397,-72.326026,Casanare,Boyacá,False
4979,Anura,Hylidae,Boana,punctata,Boana punctata,5.553397,-72.326026,Casanare,Boyacá,False
4804,Anura,Hylidae,Dendropsophus,bogerti,Dendropsophus bogerti,6.06591,-75.21107,Antioquia,Cundinamarca,False
3032,Anura,Hylidae,Dendropsophus,mathiassoni,Dendropsophus mathiassoni,3.9889,-68.3245,Guainía,Vichada,False
3033,Anura,Hylidae,Dendropsophus,mathiassoni,Dendropsophus mathiassoni,3.9889,-68.3245,Guainía,Vichada,False
3248,Anura,Hylidae,Dendropsophus,microcephalus,Dendropsophus microcephalus,7.168522,-73.847397,Córdoba,Santander,False
3250,Anura,Hylidae,Dendropsophus,microcephalus,Dendropsophus microcephalus,7.168522,-73.847397,Córdoba,Santander,False
3251,Anura,Hylidae,Dendropsophus,microcephalus,Dendropsophus microcephalus,7.168522,-73.847397,Córdoba,Santander,False
3249,Anura,Hylidae,Dendropsophus,microcephalus,Dendropsophus microcephalus,7.168522,-73.847397,Córdoba,Santander,False
3592,Anura,Hylidae,Dendropsophus,microcephalus,Dendropsophus microcephalus,4.73978,-73.76873,Tolima,Cundinamarca,False
3593,Anura,Hylidae,Dendropsophus,microcephalus,Dendropsophus microcephalus,4.73978,-73.76873,Tolima,Cundinamarca,False
3527,Anura,Hylidae,Dendropsophus,microcephalus,Dendropsophus microcephalus,4.73978,-73.76873,Tolima,Cundinamarca,False
3594,Anura,Hylidae,Dendropsophus,microcephalus,Dendropsophus microcephalus,4.73978,-73.76873,Tolima,Cundinamarca,False
3595,Anura,Hylidae,Dendropsophus,microcephalus,Dendropsophus microcephalus,4.73978,-73.76873,Tolima,Cundinamarca,False
3828,Anura,Hylidae,Dendropsophus,minutus,Dendropsophus minutus,6.168467,67.617122,Vichada,"[{'address_components': [{'long_name': '6JR95J98+9R', 'short_name': '6JR95J98+9R', 'types': ['plus_code']}], 'formatted_address': '6JR95J98+9R', 'geometry': {'bounds': {'northeast': {'lat': 6.1685, 'lng': 67.617125}, 'southwest': {'lat': 6.168375, 'lng': 67.61699999999999}}, 'location': {'lat': 6.168467, 'lng': 67.617122}, 'location_type': 'GEOMETRIC_CENTER', 'viewport': {'northeast': {'lat': 6.169786480291503, 'lng': 67.6184114802915}, 'southwest': {'lat': 6.167088519708498, 'lng': 67.61571351970849}}}, 'place_id': 'GhIJKNL9nIKsGEARGOlF7X7nUEA', 'plus_code': {'global_code': '6JR95J98+9R'}, 'types': ['plus_code']}]",False
3822,Anura,Hylidae,Dendropsophus,minutus,Dendropsophus minutus,6.17059,67.495726,Vichada,"[{'address_components': [{'long_name': '6JR95FCW+67', 'short_name': '6JR95FCW+67', 'types': ['plus_code']}], 'formatted_address': '6JR95FCW+67', 'geometry': {'bounds': {'northeast': {'lat': 6.170624999999999, 'lng': 67.49575}, 'southwest': {'lat': 6.1705, 'lng': 67.495625}}, 'location': {'lat': 6.17059, 'lng': 67.49572599999999}, 'location_type': 'GEOMETRIC_CENTER', 'viewport': {'northeast': {'lat': 6.171911480291502, 'lng': 67.49703648029151}, 'southwest': {'lat': 6.169213519708498, 'lng': 67.4943385197085}}}, 'place_id': 'GhIJOxkcJa-uGEARuHGL-bnfUEA', 'plus_code': {'global_code': '6JR95FCW+67'}, 'types': ['plus_code']}]",False
3031,Anura,Hylidae,Hypsiboas,boans,Hypsiboas boans,3.9889,-68.3245,Guainía,Vichada,False
1444,Anura,Hylidae,Hypsiboas,boans,Hypsiboas boans,5.306787,-74.9058,Tolima,Caldas,False
1447,Anura,Hylidae,Hypsiboas,boans,Hypsiboas boans,5.306787,-74.9058,Tolima,Caldas,False
1445,Anura,Hylidae,Hypsiboas,boans,Hypsiboas boans,5.306787,-74.9058,Tolima,Caldas,False
1446,Anura,Hylidae,Hypsiboas,boans,Hypsiboas boans,5.306787,-74.9058,Tolima,Caldas,False
4646,Anura,Hylidae,Hypsiboas,crepitans,Hypsiboas crepitans,5.89863,71.13598,Casanare,"[{'address_components': [{'long_name': '6JQHV4XP+F9', 'short_name': '6JQHV4XP+F9', 'types': ['plus_code']}], 'formatted_address': '6JQHV4XP+F9', 'geometry': {'bounds': {'northeast': {'lat': 5.89875, 'lng': 71.136}, 'southwest': {'lat': 5.898625, 'lng': 71.135875}}, 'location': {'lat': 5.89863, 'lng': 71.13598}, 'location_type': 'GEOMETRIC_CENTER', 'viewport': {'northeast': {'lat': 5.900036480291502, 'lng': 71.13728648029151}, 'southwest': {'lat': 5.897338519708498, 'lng': 71.1345885197085}}}, 'place_id': 'GhIJY9F0djKYF0ARPzp15bPIUUA', 'plus_code': {'global_code': '6JQHV4XP+F9'}, 'types': ['plus_code']}]",False
4649,Anura,Hylidae,Hypsiboas,crepitans,Hypsiboas crepitans,5.89863,71.13598,Casanare,"[{'address_components': [{'long_name': '6JQHV4XP+F9', 'short_name': '6JQHV4XP+F9', 'types': ['plus_code']}], 'formatted_address': '6JQHV4XP+F9', 'geometry': {'bounds': {'northeast': {'lat': 5.89875, 'lng': 71.136}, 'southwest': {'lat': 5.898625, 'lng': 71.135875}}, 'location': {'lat': 5.89863, 'lng': 71.13598}, 'location_type': 'GEOMETRIC_CENTER', 'viewport': {'northeast': {'lat': 5.900036480291502, 'lng': 71.13728648029151}, 'southwest': {'lat': 5.897338519708498, 'lng': 71.1345885197085}}}, 'place_id': 'GhIJY9F0djKYF0ARPzp15bPIUUA', 'plus_code': {'global_code': '6JQHV4XP+F9'}, 'types': ['plus_code']}]",False
3222,Anura,Hylidae,Hypsiboas,crepitans,Hypsiboas crepitans,6.7344,-74.21429,Santander,Antioquia,False
3551,Anura,Hylidae,Hypsiboas,crepitans,Hypsiboas crepitans,4.73978,-73.86868,Tolima,Cundinamarca,False
3552,Anura,Hylidae,Hypsiboas,crepitans,Hypsiboas crepitans,4.73978,-73.86868,Tolima,Cundinamarca,False
3523,Anura,Hylidae,Hypsiboas,crepitans,Hypsiboas crepitans,4.73978,-73.86868,Tolima,Cundinamarca,False
3524,Anura,Hylidae,Hypsiboas,crepitans,Hypsiboas crepitans,4.73978,-73.86868,Tolima,Cundinamarca,False
1526,Anura,Hylidae,Hypsiboas,crepitans,Hypsiboas crepitans,5.306787,-74.9058,Tolima,Caldas,False
1527,Anura,Hylidae,Hypsiboas,crepitans,Hypsiboas crepitans,5.306787,-74.9058,Tolima,Caldas,False
3823,Anura,Hylidae,Hypsiboas,crepitans,Hypsiboas crepitans,6.167955,67.49859,Vichada,"[{'address_components': [{'long_name': '6JR95F9X+5C', 'short_name': '6JR95F9X+5C', 'types': ['plus_code']}], 'formatted_address': '6JR95F9X+5C', 'geometry': {'bounds': {'northeast': {'lat': 6.168, 'lng': 67.49862499999999}, 'southwest': {'lat': 6.167875, 'lng': 67.49849999999999}}, 'location': {'lat': 6.167955, 'lng': 67.49859}, 'location_type': 'GEOMETRIC_CENTER', 'viewport': {'northeast': {'lat': 6.169286480291501, 'lng': 67.4999114802915}, 'southwest': {'lat': 6.166588519708497, 'lng': 67.4972135197085}}}, 'place_id': 'GhIJecxAZfyrGEARNQcI5ujfUEA', 'plus_code': {'global_code': '6JR95F9X+5C'}, 'types': ['plus_code']}]",False
1418,Anura,Hylidae,Hypsiboas,rosenbergi,Hypsiboas rosenbergi,5.306787,-74.9058,Tolima,Caldas,False
1419,Anura,Hylidae,Hypsiboas,rosenbergi,Hypsiboas rosenbergi,5.306787,-74.9058,Tolima,Caldas,False
4651,Anura,Hylidae,Pseudis,paradoxa,Pseudis paradoxa,5.89863,71.13598,Casanare,"[{'address_components': [{'long_name': '6JQHV4XP+F9', 'short_name': '6JQHV4XP+F9', 'types': ['plus_code']}], 'formatted_address': '6JQHV4XP+F9', 'geometry': {'bounds': {'northeast': {'lat': 5.89875, 'lng': 71.136}, 'southwest': {'lat': 5.898625, 'lng': 71.135875}}, 'location': {'lat': 5.89863, 'lng': 71.13598}, 'location_type': 'GEOMETRIC_CENTER', 'viewport': {'northeast': {'lat': 5.900036480291502, 'lng': 71.13728648029151}, 'southwest': {'lat': 5.897338519708498, 'lng': 71.1345885197085}}}, 'place_id': 'GhIJY9F0djKYF0ARPzp15bPIUUA', 'plus_code': {'global_code': '6JQHV4XP+F9'}, 'types': ['plus_code']}]",False
3229,Anura,Hylidae,Scarthyla,vigilans,Scarthyla vigilans,6.7344,-74.21429,Santander,Antioquia,False
3239,Anura,Hylidae,Scarthyla,vigilans,Scarthyla vigilans,6.7344,-74.21429,Santander,Antioquia,False
3240,Anura,Hylidae,Scarthyla,vigilans,Scarthyla vigilans,6.7344,-74.21429,Santander,Antioquia,False
3241,Anura,Hylidae,Scarthyla,vigilans,Scarthyla vigilans,6.7344,-74.21429,Santander,Antioquia,False
3242,Anura,Hylidae,Scarthyla,vigilans,Scarthyla vigilans,6.7344,-74.21429,Santander,Antioquia,False
4545,Anura,Hylidae,Scinax,rostratus,Scinax rostratus,10.97682,-74.790026,Magdalena,Atlántico,False
3228,Anura,Hylidae,Scinax,ruber,Scinax ruber,6.7344,-74.21429,Santander,Antioquia,False
3238,Anura,Hylidae,Scinax,ruber,Scinax ruber,6.7344,-74.21429,Santander,Antioquia,False
1971,Anura,Hylidae,Scinax,ruber,Scinax ruber,5.306787,-74.9058,Tolima,Caldas,False
2098,Anura,Hylidae,Scinax,ruber,Scinax ruber,5.306787,-74.9058,Tolima,Caldas,False
4976,Anura,Hylidae,Scinax,wandae,Scinax wandae,5.554404,-72.326374,Casanare,Boyacá,False
3596,Anura,Hylidae,Scinax,x-signatus,Scinax x-signatus,4.73978,-73.76873,Tolima,Cundinamarca,False
3597,Anura,Hylidae,Scinax,x-signatus,Scinax x-signatus,4.73978,-73.76873,Tolima,Cundinamarca,False
3237,Anura,Leptodactylidae,Engystomops,pustulosus,Engystomops pustulosus,6.7344,-74.21429,Santander,Antioquia,False
3227,Anura,Leptodactylidae,Engystomops,pustulosus,Engystomops pustulosus,6.7344,-74.21429,Santander,Antioquia,False
3525,Anura,Leptodactylidae,Engystomops,pustulosus,Engystomops pustulosus,4.73978,-73.86868,Tolima,Cundinamarca,False
2601,Anura,Leptodactylidae,Leptodactylus,diedrus,Leptodactylus diedrus,2.05,-67.06253,Guainía,Amazonas,False
3230,Anura,Leptodactylidae,Leptodactylus,fragilis,Leptodactylus fragilis,6.7344,-74.21429,Santander,Antioquia,False
3231,Anura,Leptodactylidae,Leptodactylus,fragilis,Leptodactylus fragilis,6.7344,-74.21429,Santander,Antioquia,False
3223,Anura,Leptodactylidae,Leptodactylus,fragilis,Leptodactylus fragilis,6.7344,-74.21429,Santander,Antioquia,False
3224,Anura,Leptodactylidae,Leptodactylus,fragilis,Leptodactylus fragilis,6.7344,-74.21429,Santander,Antioquia,False
3232,Anura,Leptodactylidae,Leptodactylus,fragilis,Leptodactylus fragilis,6.7344,-74.21429,Santander,Antioquia,False
3233,Anura,Leptodactylidae,Leptodactylus,fragilis,Leptodactylus fragilis,6.7344,-74.21429,Santander,Antioquia,False
3225,Anura,Leptodactylidae,Leptodactylus,fragilis,Leptodactylus fragilis,6.7344,-74.21429,Santander,Antioquia,False
4603,Anura,Leptodactylidae,Leptodactylus,fragilis,Leptodactylus fragilis,4.60064,-74.06604,Tolima,Cundinamarca,False
4605,Anura,Leptodactylidae,Leptodactylus,fragilis,Leptodactylus fragilis,4.60064,-74.06604,Tolima,Cundinamarca,False
4607,Anura,Leptodactylidae,Leptodactylus,fragilis,Leptodactylus fragilis,4.60064,-74.06604,Tolima,Cundinamarca,False
1055,Anura,Leptodactylidae,Leptodactylus,fuscus,Leptodactylus fuscus,5.77295,-73.03737,Casanare,Boyacá,False
4540,Anura,Leptodactylidae,Leptodactylus,fuscus,Leptodactylus fuscus,10.97682,-74.790026,Magdalena,Atlántico,False
3234,Anura,Leptodactylidae,Leptodactylus,fuscus,Leptodactylus fuscus,6.7344,-74.21429,Santander,Antioquia,False
4952,Anura,Leptodactylidae,Leptodactylus,fuscus,Leptodactylus fuscus,6.73441,-74.21428,Santander,Antioquia,False
4609,Anura,Leptodactylidae,Leptodactylus,fuscus,Leptodactylus fuscus,4.60064,-74.06604,Tolima,Cundinamarca,False
4611,Anura,Leptodactylidae,Leptodactylus,fuscus,Leptodactylus fuscus,4.60064,-74.06604,Tolima,Cundinamarca,False
3522,Anura,Leptodactylidae,Leptodactylus,fuscus,Leptodactylus fuscus,4.73978,-73.86868,Tolima,Cundinamarca,False
3591,Anura,Leptodactylidae,Leptodactylus,fuscus,Leptodactylus fuscus,4.73978,-73.86868,Tolima,Cundinamarca,False
3526,Anura,Leptodactylidae,Leptodactylus,fuscus,Leptodactylus fuscus,4.73978,-73.76873,Tolima,Cundinamarca,False
4640,Anura,Leptodactylidae,Leptodactylus,labialis,Leptodactylus labialis,5.89863,71.13598,Casanare,"[{'address_components': [{'long_name': '6JQHV4XP+F9', 'short_name': '6JQHV4XP+F9', 'types': ['plus_code']}], 'formatted_address': '6JQHV4XP+F9', 'geometry': {'bounds': {'northeast': {'lat': 5.89875, 'lng': 71.136}, 'southwest': {'lat': 5.898625, 'lng': 71.135875}}, 'location': {'lat': 5.89863, 'lng': 71.13598}, 'location_type': 'GEOMETRIC_CENTER', 'viewport': {'northeast': {'lat': 5.900036480291502, 'lng': 71.13728648029151}, 'southwest': {'lat': 5.897338519708498, 'lng': 71.1345885197085}}}, 'place_id': 'GhIJY9F0djKYF0ARPzp15bPIUUA', 'plus_code': {'global_code': '6JQHV4XP+F9'}, 'types': ['plus_code']}]",False
4647,Anura,Leptodactylidae,Leptodactylus,labialis,Leptodactylus labialis,5.89863,71.13598,Casanare,"[{'address_components': [{'long_name': '6JQHV4XP+F9', 'short_name': '6JQHV4XP+F9', 'types': ['plus_code']}], 'formatted_address': '6JQHV4XP+F9', 'geometry': {'bounds': {'northeast': {'lat': 5.89875, 'lng': 71.136}, 'southwest': {'lat': 5.898625, 'lng': 71.135875}}, 'location': {'lat': 5.89863, 'lng': 71.13598}, 'location_type': 'GEOMETRIC_CENTER', 'viewport': {'northeast': {'lat': 5.900036480291502, 'lng': 71.13728648029151}, 'southwest': {'lat': 5.897338519708498, 'lng': 71.1345885197085}}}, 'place_id': 'GhIJY9F0djKYF0ARPzp15bPIUUA', 'plus_code': {'global_code': '6JQHV4XP+F9'}, 'types': ['plus_code']}]",False
3827,Anura,Leptodactylidae,Leptodactylus,latrans,Leptodactylus latrans,6.169406,67.614633,Vichada,"[{'address_components': [{'long_name': '6JR95J97+QV', 'short_name': '6JR95J97+QV', 'types': ['plus_code']}], 'formatted_address': '6JR95J97+QV', 'geometry': {'bounds': {'northeast': {'lat': 6.169499999999999, 'lng': 67.61475}, 'southwest': {'lat': 6.169375, 'lng': 67.61462500000002}}, 'location': {'lat': 6.169406, 'lng': 67.614633}, 'location_type': 'GEOMETRIC_CENTER', 'viewport': {'northeast': {'lat': 6.170786480291501, 'lng': 67.61603648029153}, 'southwest': {'lat': 6.168088519708497, 'lng': 67.6133385197085}}}, 'place_id': 'GhIJFfw2xHitGEARtoKmJVbnUEA', 'plus_code': {'global_code': '6JR95J97+QV'}, 'types': ['plus_code']}]",False
3824,Anura,Leptodactylidae,Leptodactylus,lithonaetes,Leptodactylus lithonaetes,6.171027,67.49447,Vichada,"[{'address_components': [{'long_name': '6JR95FCV+CQ', 'short_name': '6JR95FCV+CQ', 'types': ['plus_code']}], 'formatted_address': '6JR95FCV+CQ', 'geometry': {'bounds': {'northeast': {'lat': 6.171125, 'lng': 67.4945}, 'southwest': {'lat': 6.170999999999999, 'lng': 67.49437499999999}}, 'location': {'lat': 6.171027, 'lng': 67.49446999999999}, 'location_type': 'GEOMETRIC_CENTER', 'viewport': {'northeast': {'lat': 6.172411480291501, 'lng': 67.49578648029151}, 'southwest': {'lat': 6.169713519708496, 'lng': 67.4930885197085}}}, 'place_id': 'GhIJle6usyGvGEARmbZ_ZaXfUEA', 'plus_code': {'global_code': '6JR95FCV+CQ'}, 'types': ['plus_code']}]",False
3826,Anura,Leptodactylidae,Leptodactylus,lithonaetes,Leptodactylus lithonaetes,6.171625,67.614204,Vichada,"[{'address_components': [{'long_name': '6JR95JC7+MM', 'short_name': '6JR95JC7+MM', 'types': ['plus_code']}], 'formatted_address': '6JR95JC7+MM', 'geometry': {'bounds': {'northeast': {'lat': 6.171749999999999, 'lng': 67.61425}, 'southwest': {'lat': 6.171625, 'lng': 67.614125}}, 'location': {'lat': 6.171625, 'lng': 67.614204}, 'location_type': 'GEOMETRIC_CENTER', 'viewport': {'northeast': {'lat': 6.173036480291502, 'lng': 67.61553648029151}, 'southwest': {'lat': 6.170338519708498, 'lng': 67.61283851970849}}}, 'place_id': 'GhIJObTIdr6vGEARokRLHk_nUEA', 'plus_code': {'global_code': '6JR95JC7+MM'}, 'types': ['plus_code']}]",False
2588,Anura,Leptodactylidae,Leptodactylus,longirostris,Leptodactylus longirostris,2.05,-67.06253,Guainía,Amazonas,False
2589,Anura,Leptodactylidae,Leptodactylus,longirostris,Leptodactylus longirostris,2.05,-67.06253,Guainía,Amazonas,False
2590,Anura,Leptodactylidae,Leptodactylus,longirostris,Leptodactylus longirostris,2.05,-67.06253,Guainía,Amazonas,False
2591,Anura,Leptodactylidae,Leptodactylus,longirostris,Leptodactylus longirostris,2.05,-67.06253,Guainía,Amazonas,False
2592,Anura,Leptodactylidae,Leptodactylus,longirostris,Leptodactylus longirostris,2.05,-67.06253,Guainía,Amazonas,False
2593,Anura,Leptodactylidae,Leptodactylus,longirostris,Leptodactylus longirostris,2.05,-67.06253,Guainía,Amazonas,False
2594,Anura,Leptodactylidae,Leptodactylus,longirostris,Leptodactylus longirostris,2.05,-67.06253,Guainía,Amazonas,False
3657,Anura,Leptodactylidae,Leptodactylus,melanotus,Leptodactylus melanotus,4.78474,73.27574,Boyacá,"[{'address_components': [{'long_name': '6JPMQ7MG+V7', 'short_name': '6JPMQ7MG+V7', 'types': ['plus_code']}], 'formatted_address': '6JPMQ7MG+V7', 'geometry': {'bounds': {'northeast': {'lat': 4.78475, 'lng': 73.27575}, 'southwest': {'lat': 4.784625, 'lng': 73.27562499999999}}, 'location': {'lat': 4.78474, 'lng': 73.27574}, 'location_type': 'GEOMETRIC_CENTER', 'viewport': {'northeast': {'lat': 4.786036480291502, 'lng': 73.2770364802915}, 'southwest': {'lat': 4.783338519708497, 'lng': 73.2743385197085}}}, 'place_id': 'GhIJwXPv4ZIjE0ARvYxiuaVRUkA', 'plus_code': {'global_code': '6JPMQ7MG+V7'}, 'types': ['plus_code']}, {'address_components': [{'long_name': 'Maldivas', 'short_name': 'MV', 'types': ['country', 'political']}], 'formatted_address': 'Maldivas', 'geometry': {'bounds': {'northeast': {'lat': 7.5149809, 'lng': 74.7290038}, 'southwest': {'lat': -1.2907844, 'lng': 71.75170899999999}}, 'location': {'lat': 3.202778, 'lng': 73.22068}, 'location_type': 'APPROXIMATE', 'viewport': {'northeast': {'lat': 7.5149809, 'lng': 74.7290038}, 'southwest': {'lat': -1.2907844, 'lng': 71.75170899999999}}}, 'place_id': 'ChIJvXv7qr-ZtSQRiWKVgeEJRUE', 'types': ['country', 'political']}]",False
4639,Anura,Leptodactylidae,Leptodactylus,ocellatus,Leptodactylus ocellatus,5.89863,71.13598,Casanare,"[{'address_components': [{'long_name': '6JQHV4XP+F9', 'short_name': '6JQHV4XP+F9', 'types': ['plus_code']}], 'formatted_address': '6JQHV4XP+F9', 'geometry': {'bounds': {'northeast': {'lat': 5.89875, 'lng': 71.136}, 'southwest': {'lat': 5.898625, 'lng': 71.135875}}, 'location': {'lat': 5.89863, 'lng': 71.13598}, 'location_type': 'GEOMETRIC_CENTER', 'viewport': {'northeast': {'lat': 5.900036480291502, 'lng': 71.13728648029151}, 'southwest': {'lat': 5.897338519708498, 'lng': 71.1345885197085}}}, 'place_id': 'GhIJY9F0djKYF0ARPzp15bPIUUA', 'plus_code': {'global_code': '6JQHV4XP+F9'}, 'types': ['plus_code']}]",False
4641,Anura,Leptodactylidae,Leptodactylus,ocellatus,Leptodactylus ocellatus,5.89863,71.13598,Casanare,"[{'address_components': [{'long_name': '6JQHV4XP+F9', 'short_name': '6JQHV4XP+F9', 'types': ['plus_code']}], 'formatted_address': '6JQHV4XP+F9', 'geometry': {'bounds': {'northeast': {'lat': 5.89875, 'lng': 71.136}, 'southwest': {'lat': 5.898625, 'lng': 71.135875}}, 'location': {'lat': 5.89863, 'lng': 71.13598}, 'location_type': 'GEOMETRIC_CENTER', 'viewport': {'northeast': {'lat': 5.900036480291502, 'lng': 71.13728648029151}, 'southwest': {'lat': 5.897338519708498, 'lng': 71.1345885197085}}}, 'place_id': 'GhIJY9F0djKYF0ARPzp15bPIUUA', 'plus_code': {'global_code': '6JQHV4XP+F9'}, 'types': ['plus_code']}]",False
4642,Anura,Leptodactylidae,Leptodactylus,ocellatus,Leptodactylus ocellatus,5.89863,71.13598,Casanare,"[{'address_components': [{'long_name': '6JQHV4XP+F9', 'short_name': '6JQHV4XP+F9', 'types': ['plus_code']}], 'formatted_address': '6JQHV4XP+F9', 'geometry': {'bounds': {'northeast': {'lat': 5.89875, 'lng': 71.136}, 'southwest': {'lat': 5.898625, 'lng': 71.135875}}, 'location': {'lat': 5.89863, 'lng': 71.13598}, 'location_type': 'GEOMETRIC_CENTER', 'viewport': {'northeast': {'lat': 5.900036480291502, 'lng': 71.13728648029151}, 'southwest': {'lat': 5.897338519708498, 'lng': 71.1345885197085}}}, 'place_id': 'GhIJY9F0djKYF0ARPzp15bPIUUA', 'plus_code': {'global_code': '6JQHV4XP+F9'}, 'types': ['plus_code']}]",False
4644,Anura,Leptodactylidae,Leptodactylus,ocellatus,Leptodactylus ocellatus,5.89863,71.13598,Casanare,"[{'address_components': [{'long_name': '6JQHV4XP+F9', 'short_name': '6JQHV4XP+F9', 'types': ['plus_code']}], 'formatted_address': '6JQHV4XP+F9', 'geometry': {'bounds': {'northeast': {'lat': 5.89875, 'lng': 71.136}, 'southwest': {'lat': 5.898625, 'lng': 71.135875}}, 'location': {'lat': 5.89863, 'lng': 71.13598}, 'location_type': 'GEOMETRIC_CENTER', 'viewport': {'northeast': {'lat': 5.900036480291502, 'lng': 71.13728648029151}, 'southwest': {'lat': 5.897338519708498, 'lng': 71.1345885197085}}}, 'place_id': 'GhIJY9F0djKYF0ARPzp15bPIUUA', 'plus_code': {'global_code': '6JQHV4XP+F9'}, 'types': ['plus_code']}]",False
4650,Anura,Leptodactylidae,Leptodactylus,ocellatus,Leptodactylus ocellatus,5.89863,71.13598,Casanare,"[{'address_components': [{'long_name': '6JQHV4XP+F9', 'short_name': '6JQHV4XP+F9', 'types': ['plus_code']}], 'formatted_address': '6JQHV4XP+F9', 'geometry': {'bounds': {'northeast': {'lat': 5.89875, 'lng': 71.136}, 'southwest': {'lat': 5.898625, 'lng': 71.135875}}, 'location': {'lat': 5.89863, 'lng': 71.13598}, 'location_type': 'GEOMETRIC_CENTER', 'viewport': {'northeast': {'lat': 5.900036480291502, 'lng': 71.13728648029151}, 'southwest': {'lat': 5.897338519708498, 'lng': 71.1345885197085}}}, 'place_id': 'GhIJY9F0djKYF0ARPzp15bPIUUA', 'plus_code': {'global_code': '6JQHV4XP+F9'}, 'types': ['plus_code']}]",False
4653,Anura,Leptodactylidae,Leptodactylus,ocellatus,Leptodactylus ocellatus,5.89863,71.13598,Casanare,"[{'address_components': [{'long_name': '6JQHV4XP+F9', 'short_name': '6JQHV4XP+F9', 'types': ['plus_code']}], 'formatted_address': '6JQHV4XP+F9', 'geometry': {'bounds': {'northeast': {'lat': 5.89875, 'lng': 71.136}, 'southwest': {'lat': 5.898625, 'lng': 71.135875}}, 'location': {'lat': 5.89863, 'lng': 71.13598}, 'location_type': 'GEOMETRIC_CENTER', 'viewport': {'northeast': {'lat': 5.900036480291502, 'lng': 71.13728648029151}, 'southwest': {'lat': 5.897338519708498, 'lng': 71.1345885197085}}}, 'place_id': 'GhIJY9F0djKYF0ARPzp15bPIUUA', 'plus_code': {'global_code': '6JQHV4XP+F9'}, 'types': ['plus_code']}]",False
4543,Anura,Leptodactylidae,Leptodactylus,poecilochilus,Leptodactylus poecilochilus,10.97682,-74.790026,Magdalena,Atlántico,False
2584,Anura,Leptodactylidae,Leptodactylus,riveroi,Leptodactylus riveroi,2.05,-67.06253,Guainía,Amazonas,False
2585,Anura,Leptodactylidae,Leptodactylus,riveroi,Leptodactylus riveroi,2.05,-67.06253,Guainía,Amazonas,False
4971,Anura,Leptodactylidae,Lithodytes,lineatus,Lithodytes lineatus,5.572452,-72.317428,Casanare,Boyacá,False
3235,Anura,Leptodactylidae,Pseudopaludicola,pusilla,Pseudopaludicola pusilla,6.7344,-74.21429,Santander,Antioquia,False
3236,Anura,Leptodactylidae,Pseudopaludicola,pusilla,Pseudopaludicola pusilla,6.7344,-74.21429,Santander,Antioquia,False
2596,Anura,Microhylidae,Chiasmocleis,hudsoni,Chiasmocleis hudsoni,2.05,-67.06253,Guainía,Amazonas,False
2599,Anura,Microhylidae,Chiasmocleis,hudsoni,Chiasmocleis hudsoni,2.05,-67.06253,Guainía,Amazonas,False
2600,Anura,Microhylidae,Chiasmocleis,hudsoni,Chiasmocleis hudsoni,2.05,-67.06253,Guainía,Amazonas,False
4645,Anura,Microhylidae,Elachistocleis,ovalis,Elachistocleis ovalis,5.89863,71.13598,Casanare,"[{'address_components': [{'long_name': '6JQHV4XP+F9', 'short_name': '6JQHV4XP+F9', 'types': ['plus_code']}], 'formatted_address': '6JQHV4XP+F9', 'geometry': {'bounds': {'northeast': {'lat': 5.89875, 'lng': 71.136}, 'southwest': {'lat': 5.898625, 'lng': 71.135875}}, 'location': {'lat': 5.89863, 'lng': 71.13598}, 'location_type': 'GEOMETRIC_CENTER', 'viewport': {'northeast': {'lat': 5.900036480291502, 'lng': 71.13728648029151}, 'southwest': {'lat': 5.897338519708498, 'lng': 71.1345885197085}}}, 'place_id': 'GhIJY9F0djKYF0ARPzp15bPIUUA', 'plus_code': {'global_code': '6JQHV4XP+F9'}, 'types': ['plus_code']}]",False
4652,Anura,Microhylidae,Elachistocleis,ovalis,Elachistocleis ovalis,5.89863,71.13598,Casanare,"[{'address_components': [{'long_name': '6JQHV4XP+F9', 'short_name': '6JQHV4XP+F9', 'types': ['plus_code']}], 'formatted_address': '6JQHV4XP+F9', 'geometry': {'bounds': {'northeast': {'lat': 5.89875, 'lng': 71.136}, 'southwest': {'lat': 5.898625, 'lng': 71.135875}}, 'location': {'lat': 5.89863, 'lng': 71.13598}, 'location_type': 'GEOMETRIC_CENTER', 'viewport': {'northeast': {'lat': 5.900036480291502, 'lng': 71.13728648029151}, 'southwest': {'lat': 5.897338519708498, 'lng': 71.1345885197085}}}, 'place_id': 'GhIJY9F0djKYF0ARPzp15bPIUUA', 'plus_code': {'global_code': '6JQHV4XP+F9'}, 'types': ['plus_code']}]",False
4925,Anura,Ranidae,Lithobates,catesbeianus,Lithobates catesbeianus,4.33242,-75.42515,Cundinamarca,Tolima,False
4977,Anura,Ranidae,Lithobates,palmipes,Lithobates palmipes,5.553593,-72.325166,Casanare,Boyacá,False
4944,Caudata,Plethodontidae,Bolitoglossa,phalarosoma,Bolitoglossa phalarosoma,6.06569,-75.21319,Antioquia,Cundinamarca,False
